City_ID,City,Country,Max Temp,Current Description,Lat,Lng,Hotel Name
1,Mataura,NZ,50.49,broken clouds,-46.1927,168.8643,Ellie's Villa
3,Avarua,CK,73.45,light rain,-21.2078,-159.775,Paradise Inn
4,Alta Floresta,BR,87.62,scattered clouds,-9.8756,-56.0861,Floresta Amazonica Hotel
6,Port Blair,IN,79.93,scattered clouds,11.6667,92.75,"Welcomhotel By ITC Hotels, Bay Island, Port Blair"
8,Meulaboh,ID,78.89,broken clouds,4.1363,96.1285,Kost Pria
9,Bambous Virieux,MU,79.05,light rain,-20.3428,57.7575,Casa Tia Villa
10,Pozo Colorado,PY,95.95,overcast clouds,-23.4923,-58.7972,Hospedaje la Amistad
13,Hilo,US,74.93,overcast clouds,19.7297,-155.09,Hilo Hawaiian Hotel
15,Hermanus,ZA,73.9,broken clouds,-34.4187,19.2345,Misty Waves Boutique Hotel
16,Atuona,PF,78.35,light rain,-9.8,-139.0333,Villa Enata
17,Oistins,BB,84.29,broken clouds,13.0667,-59.5333,Butterfly Beach Hotel
18,Busselton,AU,66.04,clear sky,-33.65,115.3333,Observatory Guest House
19,Bredasdorp,ZA,68.29,broken clouds,-34.5322,20.0403,Bredasdorp Country Manor
21,Punta Arenas,CL,53.62,scattered clouds,-53.15,-70.9167,Hotel Hain
23,Rikitea,PF,75.54,overcast clouds,-23.1203,-134.9692,People ThankYou
25,Camacha,PT,64.53,broken clouds,33.0833,-16.3333,Hotel Porto Santo & Spa
26,Lata,PT,60.35,overcast clouds,40.1629,-8.3327,Casa Maquia
28,Thio,NC,73.36,few clouds,-21.6167,166.2167,La Ferme de Thio
30,Ampanihy,MG,81.81,broken clouds,-24.7,44.75,Angora Hotel
32,Puerto Ayora,EC,71.56,broken clouds,-0.7393,-90.3518,Finch Bay Galapagos Hotel
33,Kolokani,ML,93.61,broken clouds,13.5728,-8.0339,Lycee Famolo Coulibalibali De Kolokani
34,Saint-Philippe,RE,80.15,light rain,-21.3585,55.7679,"Chambres d'hôte ""La Trinité"""
35,Bol,TD,82.56,scattered clouds,13.4586,14.7147,Hotel 3 Etoiles
36,Piacabucu,BR,86.67,broken clouds,-10.4056,-36.4344,Piaçabuçu News
39,Cidreira,BR,72.79,scattered clouds,-30.1811,-50.2056,Hotel Castelo
40,Odweyne,SO,67.73,broken clouds,9.4092,45.064,Eng Hiirey House
41,Carnarvon,AU,73.47,overcast clouds,-24.8667,113.6333,Hospitality Carnarvon
42,Butaritari,KI,82.53,overcast clouds,3.0707,172.7902,Isles Sunset Lodge
43,Lagoa,PT,59.72,overcast clouds,39.05,-27.9833,Casa Das Faias
45,Tabuk,PH,67.06,overcast clouds,17.4189,121.4443,Golden Berries Hotel and Convention
46,Rawson,AR,91.72,broken clouds,-43.3002,-65.1023,Hosteria Sampedro
50,Karaton,ID,78.96,light rain,-6.3424,106.1045,Parkir Mobil Wisata CAS Water Park
51,Port Hedland,AU,82.45,broken clouds,-20.3167,118.5667,The Esplanade Hotel
52,Airai,TL,62.11,broken clouds,-8.9266,125.4092,Juvinal Martin
54,Frontera,MX,61.32,clear sky,26.9333,-101.45,Casagrande Hotel
55,Newberry,US,53.87,scattered clouds,34.2746,-81.6187,Hampton Inn Newberry-Opera House
56,Port Alfred,ZA,67.95,overcast clouds,-33.5906,26.891,The Halyards Hotel
58,Talara,PE,77.76,clear sky,-4.5772,-81.2719,Hostal Oro Negro
61,Cape Town,ZA,74.12,few clouds,-33.9258,18.4232,Southern Sun Waterfront Cape Town
64,Isangel,VU,77.11,clear sky,-19.55,169.2667,Tanna Lodge
65,Mahebourg,MU,79.09,light rain,-20.4081,57.7,Shandrani Beachcomber Resort & Spa
67,Harper,LR,83.44,overcast clouds,4.375,-7.7169,Screensaver
68,Constitucion,CL,63.37,scattered clouds,-35.3333,-72.4167,Hotel Boutique Las Azucenas
69,Flinders,AU,66.2,overcast clouds,-34.5833,150.8552,Shellharbour Resort & Conference Centre
70,Conceicao Do Araguaia,BR,86.23,few clouds,-8.2578,-49.2647,Tarumã Tropical Hotel
76,Cap Malheureux,MU,79.29,clear sky,-19.9842,57.6142,Pereybere Hotel & Spa
79,Parrita,CR,91.98,scattered clouds,9.5201,-84.3225,Beso del Viento
80,Bonavista,CA,59.11,light rain,48.6499,-53.1147,Abbott's Bed & Breakfast
83,Tarata,BO,65.07,overcast clouds,-17.6167,-66.0167,Hacienda castillo
84,Vaini,TO,75.36,light intensity shower rain,-21.2,-175.2,Keleti Beach Resort
86,Salinopolis,BR,82.54,broken clouds,-0.6136,-47.3561,Salinas Park Resort Maçarico AP101
88,Agadir,MA,77.45,overcast clouds,30.4202,-9.5982,Iberostar Founty Beach
89,Pecos,US,63.3,clear sky,31.4229,-103.4932,Knights Inn & Suites Pecos
90,Port Lincoln,AU,57.09,overcast clouds,-34.7333,135.8667,Port Lincoln Hotel
92,Chuy,UY,71.96,clear sky,-33.6971,-53.4616,Nuevo Hotel Plaza
93,Tabou,CI,83.25,overcast clouds,4.423,-7.3528,hotêl doufoulougou
97,Bluff,NZ,50.81,overcast clouds,-46.6,168.3333,Bluff Homestead - Guesthouse & Campervan Park
103,Lebu,CL,62.13,broken clouds,-37.6167,-73.65,Hostal Las Lilas
107,East London,ZA,68.14,broken clouds,-33.0153,27.9116,Tu Casa
108,Sao Filipe,CV,78.87,overcast clouds,14.8961,-24.4956,Hotel Xaguate
111,Georgetown,MY,81.9,few clouds,5.4112,100.3354,Cititel Penang
112,Alofi,NU,73.29,light rain,-19.0595,-169.9187,Taloa Heights
113,Bathsheba,BB,84.81,broken clouds,13.2167,-59.5167,Atlantis Hotel
117,Belmonte,BR,82.9,broken clouds,-15.8631,-38.8828,Pousada Monte Carmelo O Pão
124,Hithadhoo,MV,82.47,overcast clouds,-0.6,73.0833,Scoop Guest House
125,Birjand,IR,54.07,clear sky,32.8663,59.2211,Birjand Tourist Hotel
126,Kerema,PG,78.48,overcast clouds,-7.9631,145.7785,Frena Lodge
128,Namibe,AO,81.23,few clouds,-15.1961,12.1522,Hotel Chik Chik Namibe
129,Tuatapere,NZ,50.83,overcast clouds,-46.1333,167.6833,Ron and Tony's Bed & Breakfast
131,Kapit,MY,74.25,overcast clouds,2.0167,112.9333,Hotel Meligai Kapit
132,Kaeo,NZ,66.33,overcast clouds,-35.1,173.7833,Bushido Lodge
133,Kavieng,PG,81.39,light rain,-2.5744,150.7967,Nusa Island Retreat
135,Saint George,US,52.36,broken clouds,37.1041,-113.5841,Best Western Plus Abbey Inn
138,Hambantota,LK,79.14,few clouds,6.1241,81.1185,Bungalow 63
140,Malakal,SS,88.81,scattered clouds,9.5334,31.6605,Nile Palace Hotel
141,Port Moresby,PG,76.42,overcast clouds,-9.4431,147.1797,Lamana Hotel (Port Moresby)
142,Pueblo,US,51.75,overcast clouds,38.2545,-104.6091,Courtyard by Marriott Pueblo Downtown
143,Najran,SA,70.45,clear sky,17.4924,44.1277,محمد هادي ال فطيح
144,Lamu,KE,80.42,overcast clouds,-2.2717,40.902,Lamu House
145,San Cristobal,VE,75.38,overcast clouds,7.7669,-72.225,Posada Villaven C.A.
146,Kannauj,IN,64.27,clear sky,27.0546,79.922,Hotel M L Palace
147,Mecca,SA,79.47,clear sky,21.4267,39.8261,"Makkah Clock Royal Tower, A Fairmont Hotel"
148,Kapaa,US,70.12,moderate rain,22.0752,-159.319,Sheraton Kauai Coconut Beach Resort
150,Phan Thiet,VN,72.66,scattered clouds,10.9333,108.1,Hotel Saigon-PT
151,Richards Bay,ZA,74.44,broken clouds,-28.783,32.0377,BON Hotel Waterfront Richards Bay
152,Chenzhou,CN,51.28,clear sky,25.8,113.0333,Thank Inn Chain Hotel hunan chenzhou beihu district wuling square
153,Sinnamary,GF,81.86,broken clouds,5.3833,-52.95,ALETHEIA Appartement Sinnamary
154,Torbay,CA,58.68,light intensity drizzle,47.6666,-52.7314,Gallows Cove
155,Victoria,HK,69.24,overcast clouds,22.2855,114.1577,Mini Hotel Central
157,Saldanha,ZA,77.05,scattered clouds,-33.0117,17.9442,Blue Bay Lodge
158,Boffa,GN,94.5,few clouds,10.1667,-14.0333,Hôtel Niara Belly
159,Pathein,MM,69.55,clear sky,16.7833,94.7333,New Pammawaddy Hotel
160,Cayenne,GF,86.04,scattered clouds,4.9333,-52.3333,Hôtel Le Dronmi
162,Vila Franca Do Campo,PT,63.19,overcast clouds,37.7167,-25.4333,Pestana Bahia Praia
163,Castro,BR,66.58,broken clouds,-24.7911,-50.0119,CHACARA BAILLY
164,Rio Grande,BR,75.31,clear sky,-32.035,-52.0986,Hotel Atlântico Rio Grande
166,Caravelas,BR,75.76,overcast clouds,-17.7125,-39.2481,Pousada dos Navegantes
168,Mar Del Plata,AR,73.42,scattered clouds,-38.0023,-57.5575,Gran Hotel Mar del Plata
169,Hobe Sound,US,79.97,clear sky,27.0595,-80.1364,Floridays RV Park
170,Chimore,BO,88.32,broken clouds,-16.9833,-65.1333,Bichito
172,Sur,OM,74.25,clear sky,22.5667,59.5289,Sur Plaza Hotel
173,Muros,ES,56.08,overcast clouds,42.7762,-9.0603,Apartment Av. Castelao
178,Bembereke,BJ,94.24,scattered clouds,10.2283,2.6634,Hotel Bio Guera
179,Arraial Do Cabo,BR,75.16,mist,-22.9661,-42.0278,Pousada Porto Praia
181,Sao Joao Da Barra,BR,78.89,overcast clouds,-21.6403,-41.0511,Pousada Porto De Canoas
182,Mocuba,MZ,88.65,overcast clouds,-16.8392,36.9856,Phama Lodge
185,Anjiang,CN,52.95,overcast clouds,27.3194,110.1031,Dahua Hotel
186,Diffa,NE,84.79,few clouds,13.3154,12.6113,ProDAF/Diffa
188,Bandarbeyla,SO,77.5,clear sky,9.4942,50.8122,JABIR HOTEL
190,Payo,ID,73.65,overcast clouds,-3.7508,103.6372,Mess keban agung
191,Le Vauclin,MQ,84.25,broken clouds,14.5452,-60.8388,Hôtel Cap Macabou
194,Pokhara,NP,57.99,clear sky,28.2333,83.9833,Butterfly Lodge
199,Pisco,PE,68.05,mist,-13.7,-76.2167,Hotel San Isidro Oficial
201,Mega,ET,66.52,broken clouds,4.05,38.3,Amanuel Guest House
203,Hasaki,JP,50.4,moderate rain,35.7333,140.8333,Hotel Sunrise Choshi
205,Oliveira Dos Brejinhos,BR,87.13,scattered clouds,-12.3169,-42.8961,Hotel Paraiso
208,Itaporanga,BR,97.41,scattered clouds,-7.3044,-38.1503,Hotel Rainha do Vale
209,Port Elizabeth,ZA,70.09,clear sky,-33.918,25.5701,39 On Nile Guest House
210,Boulsa,BF,95.27,broken clouds,12.6675,-0.5758,Auberge Relwende
211,Nicoya,CR,85.55,broken clouds,10.1483,-85.452,Las Cabinas Del Sueño
215,Carutapera,BR,82.4,scattered clouds,-1.195,-46.02,Lidera
217,Tuban,ID,79.38,overcast clouds,-6.8976,112.0649,Hotel Mustika
218,Ranong,TH,74.35,broken clouds,9.9658,98.6348,Tinidee Hotel@Ranong
219,Srandakan,ID,65.73,overcast clouds,-7.9386,110.2506,Puri Brata
223,Vila Velha,BR,73.35,moderate rain,-20.3297,-40.2925,Quality Suites Vila Velha
224,Faanui,PF,80.69,overcast clouds,-16.4833,-151.75,Bora-Bora Pearl Beach Resort & Spa
227,Ambulu,ID,77.54,overcast clouds,-8.345,113.6058,Hotel Ambulu Jember
229,Kruisfontein,ZA,65.88,overcast clouds,-34.0033,24.7314,Oyster Bay House Rental
230,Portland,US,50.59,overcast clouds,45.5234,-122.6762,Embassy Suites by Hilton Portland Downtown
231,Inyonga,TZ,76.1,overcast clouds,-6.7167,32.0667,Eden Rock Lodge
232,Ribeira Grande,PT,64.8,scattered clouds,38.5167,-28.7,Quinta da Meia Eira
235,Bowen,AU,71.82,clear sky,-20.0167,148.2333,Castle Motor Lodge Motel
236,Mareeba,AU,75.92,broken clouds,-17.0,145.4333,Trinity Plains Tourist Park
238,Guhagar,IN,74.95,clear sky,17.4842,73.1929,Hotel Seawinds
239,Tautira,PF,78.82,overcast clouds,-17.7333,-149.15,Pension Oaoa
240,Souillac,MU,79.18,light rain,-20.5167,57.5167,Shanti Maurice Resort & Spa
241,Vallenar,CL,82.38,scattered clouds,-28.5708,-70.7581,Humacao Bed & Breakfast
243,Ormara,PK,75.97,clear sky,25.2088,64.6357,Crystal Beach and Camping Resort Ormara
245,Ugoofaaru,MV,83.14,broken clouds,5.6667,73.0,Ungoofaaru Inn
248,Havelock,US,54.01,overcast clouds,34.8791,-76.9013,Sherwood Motel
250,Tonj,SS,90.19,overcast clouds,7.2737,28.6822,Lakan Hotel
253,Vaitape,PF,80.69,overcast clouds,-16.5167,-151.75,Conrad Bora Bora Nui
254,Mount Isa,AU,82.17,light rain,-20.7333,139.5,ibis Styles Mt Isa Verona
255,Port Lavaca,US,58.98,overcast clouds,28.615,-96.6261,Holiday Inn Express & Suites Port Lavaca
258,Finschhafen,PG,80.73,overcast clouds,-6.6024,147.8681,Cossam Guest House
259,Kavaratti,IN,80.37,clear sky,10.5669,72.642,Hotels in Lakshadweep Islands
262,Gat,IL,66.4,overcast clouds,31.61,34.7642,OlusHome
263,Atar,MR,83.25,overcast clouds,20.5169,-13.0499,Oumou Elghoura
264,Cabedelo,BR,84.6,clear sky,-6.9811,-34.8339,Hotel Pigalle
265,Esperance,AU,57.56,clear sky,-33.8667,121.9,Hospitality Esperance
270,Kahului,US,78.84,overcast clouds,20.8947,-156.47,Maui Seaside Hotel
272,Kambove,CD,69.91,light rain,-10.8764,26.5969,Couvant des soeurs catholiques
277,Aguimes,ES,65.03,clear sky,27.9054,-15.4461,Hotel Villa de Aguimes
278,Bambanglipuro,ID,64.6,overcast clouds,-7.95,110.2833,Puri Brata
279,San-Pedro,CI,83.43,overcast clouds,4.7485,-6.6363,Hotel Maria
281,Sabang,ID,82.38,few clouds,5.8933,95.3214,Hotel Citra
284,Rio Gallegos,AR,54.18,overcast clouds,-51.6226,-69.2181,Hotel Santa Cruz
285,Guerrero Negro,MX,62.6,clear sky,27.9769,-114.0611,"Casa Laguna, Bed & Breakfast"
287,Reconquista,AR,90.18,clear sky,-29.15,-59.65,Grand Hotel
289,Jardim,BR,96.49,few clouds,-21.4803,-56.1381,Estancia Hotel - Jardim MS
291,Vao,NC,77.65,clear sky,-22.6667,167.4833,Hotel Kou-Bugny
292,Arlit,NE,84.15,clear sky,18.7369,7.3853,Case de Passage De la Prefecture
293,Isiro,CD,77.63,overcast clouds,2.7739,27.616,Guest House Hewa Bora
296,Plettenberg Bay,ZA,64.8,scattered clouds,-34.0527,23.3716,Thanda Vista B&B
297,Lorengau,PG,81.46,overcast clouds,-2.0226,147.2712,Lorengau Harbourside Hotel
298,Fortuna,US,50.36,overcast clouds,40.5982,-124.1573,Super 8 by Wyndham Fortuna
299,Samarai,PG,80.82,broken clouds,-10.6167,150.6667,Nuli Sapi
301,Sambava,MG,78.08,clear sky,-14.2667,50.1667,Melrose
303,Dingle,PH,74.98,overcast clouds,10.9995,122.6711,SEGAYA PROPERTY
304,Karachi,PK,69.62,haze,24.9056,67.0822,Sadaat
305,San Patricio,US,60.89,broken clouds,28.017,-97.5169,"Motel 6 Sinton, TX"
306,Codrington,AU,52.34,broken clouds,-38.2667,141.9667,Codrington Gardens Bed And Breakfast
307,Waddan,LY,55.17,clear sky,29.1614,16.139,محل الشريف محمد العايب
308,Kieta,PG,78.76,light rain,-6.2167,155.6333,Uruna Bay Retreat
309,Kudamatsu,JP,54.59,broken clouds,34.0,131.8667,Hotel AZ Yamaguchi Kudamatsu
310,Vidisha,IN,65.53,clear sky,23.5333,77.8167,STARiHOTELS Railway station Vidisha
311,Lompoc,US,56.12,overcast clouds,34.6391,-120.4579,"Holiday Inn Express Lompoc, an IHG Hotel"
314,Asyut,EG,69.42,overcast clouds,27.181,31.1837,Florence Hotel Assiut
315,Kangaba,ML,95.85,broken clouds,11.9333,-8.4167,CAF (case de l´amitié et de la fraternité)
319,Porto Novo,BJ,87.62,broken clouds,6.4965,2.6036,Tour Eiffel Hotel Benin
320,Hokitika,NZ,51.33,scattered clouds,-42.7167,170.9667,Beachfront Hotel Hokitika
323,Bengkulu,ID,76.59,broken clouds,-3.8004,102.2655,Grage Hotel Bengkulu
324,Trelew,AR,97.18,overcast clouds,-43.249,-65.3051,Hotel Touring Club
326,Gasa,PS,64.18,overcast clouds,31.5,34.4667,رابطة الفنانين الفلسطينيين
327,Machali,CL,82.02,clear sky,-34.1833,-70.6667,Mining House
328,Nchelenge,ZM,79.97,broken clouds,-9.3451,28.734,KD Travellers Home
332,Kinkala,CG,79.41,light rain,-4.3614,14.7644,Hotel la Pepeche Kinkala
336,Erzin,TR,63.12,clear sky,36.9559,36.2,Artemis Otel
340,Nobres,BR,88.75,overcast clouds,-14.7203,-56.3275,Hotel Portal Nobres
341,La Palma,US,59.81,mist,33.8464,-118.0467,La Quinta Inn & Suites by Wyndham Buena Park
342,Progreso,MX,80.71,clear sky,21.2833,-89.6667,Playa Linda Hotel
345,Sennan,JP,54.84,broken clouds,34.3582,135.2837,株式会社ウインド幸樹
346,Marawi,PH,68.65,overcast clouds,7.9986,124.2928,Derogongan Residence
348,Aquiraz,BR,89.22,scattered clouds,-3.9014,-38.3911,Pousada Rua Camurupim
350,Kutum,SD,78.22,clear sky,14.2,24.6667,Dibbo areaمنطقة دبو
351,San Andres,CO,81.97,few clouds,12.5847,-81.7006,Hotel Arena Blanca
353,Gisborne,NZ,65.95,overcast clouds,-38.6533,178.0042,ASURE Alfresco Motor Lodge
355,Hervey Bay,AU,75.04,broken clouds,-25.2986,152.8535,Shelly Bay Resort
357,Santa Isabel,BR,71.31,overcast clouds,-23.3156,-46.2214,Chácara Sombra do Altíssimo
361,Ponnani,IN,81.72,clear sky,10.767,75.9252,Rouba Residency
362,Tucupita,VE,81.54,broken clouds,9.0622,-62.051,Hotel Tucupita Su​ite C.A.
363,Namatanai,PG,78.55,moderate rain,-3.6667,152.4333,Seagulls Inn Namatani
366,Touros,BR,86.9,few clouds,-5.1989,-35.4608,INN NEW HORIZON
367,Antalaha,MG,77.13,clear sky,-14.9003,50.2788,Hotel Vitasoa
368,Imbituba,BR,75.09,broken clouds,-28.24,-48.6703,Praia Hotel Imbituba
369,Santa Maria,BR,82.72,clear sky,-29.6842,-53.8069,Hotel Morotin
371,Ishigaki,JP,69.35,overcast clouds,24.3448,124.1572,Hotel Peace Land Ishigakijima
372,Port Shepstone,ZA,70.83,light rain,-30.7414,30.455,My Den Beachfront Bed and Breakfast | Self-Catering
373,Akyab,MM,78.28,scattered clouds,20.15,92.9,Hotel Memory
374,Chipinge,ZW,82.54,broken clouds,-20.1883,32.6236,Chipinge Breeze Lodge
379,Tura,IN,64.08,clear sky,25.5198,90.2201,Hotel RIKMAN Continental
384,Honghu,CN,52.83,overcast clouds,29.8206,113.4621,文泉花园酒店
386,Labuhan,ID,79.84,overcast clouds,-6.8844,112.2051,PT PPI Lamongan Tambak C
390,Abha,SA,59.25,clear sky,18.2164,42.5053,Abha Hotel
391,Hobyo,SO,78.82,broken clouds,5.3505,48.5268,Halane Hotel and Restaurent
396,Dwarka,IN,76.46,clear sky,22.2394,68.9678,Hotel Narayan Avezika Comfort
397,Soyo,AO,81.27,broken clouds,-6.1349,12.3689,Hotel Mpampa
401,Xuddur,SO,83.23,overcast clouds,4.1213,43.8894,Banjanay Hotel
403,Lethem,GY,86.54,broken clouds,3.3803,-59.7968,Savannah Inn
404,Solano,US,52.05,overcast clouds,38.2333,-121.9511,Westwind Inn
405,Amahai,ID,79.12,light rain,-3.3333,128.9167,HOTEL ISABELA
406,Nelson Bay,AU,68.09,broken clouds,-32.7167,152.15,Mantra Nelson Bay
407,Chalus,IR,60.12,clear sky,36.655,51.4204,نظام مهندسي ساختمان چالوس
409,Acapulco,MX,82.63,clear sky,16.8634,-99.8901,HS Hotsson Smart Acapulco
411,Puerto Del Rosario,ES,67.75,few clouds,28.5004,-13.8627,Hotel JM Puerto del Rosario
412,Berbera,SO,78.71,few clouds,10.4396,45.0143,IBCO REAL ESTATE PROPERTY
413,Iquique,CL,69.84,scattered clouds,-20.2208,-70.1431,Backpacker`s Hostel Iquique
417,Ponta Do Sol,PT,67.71,overcast clouds,32.6667,-17.1,Hotel do Campo
418,Manggar,ID,78.66,overcast clouds,-2.8833,108.2667,Guest Hotel
422,Balikpapan,ID,76.6,overcast clouds,-1.2675,116.8289,ibis Balikpapan
423,Tabatinga,BR,82.49,broken clouds,-4.2525,-69.9381,Hotel Amazon Bed and Breakfast / Hotel Amazon B&B
424,Karratha,AU,88.83,scattered clouds,-20.7377,116.8463,ibis Styles Karratha
425,Kijang,KR,50.58,broken clouds,35.2442,129.2139,Samyang Beach Villa
426,Oudtshoorn,ZA,69.13,broken clouds,-33.5907,22.2014,Earthbound Guest House
428,Dunedin,NZ,50.14,scattered clouds,-45.8742,170.5036,Scenic Hotel Southern Cross
429,Chicama,PE,64.94,broken clouds,-7.8447,-79.1469,Balihai Bungalows
430,Cururupu,BR,85.46,scattered clouds,-1.8283,-44.8683,POUSADA TRAVÉS'CIA
431,Lodwar,KE,89.98,overcast clouds,3.1191,35.5973,Solmar Gracious Hotel
433,Gushikawa,JP,69.03,few clouds,26.3544,127.8686,Kirari Guest House
436,Kamina,CD,74.75,broken clouds,-8.7386,24.9906,Guest House Florvia
437,Gouyave,GD,86.77,few clouds,12.1646,-61.7296,Rumboat Retreat
438,Kirundo,BI,74.17,overcast clouds,-2.5833,30.1667,Maranatha Hotel
439,Angoche,MZ,81.63,clear sky,-16.2325,39.9086,Guest House HESADA
440,Faya,SA,59.52,clear sky,18.3851,42.4509,املاك خالد الشعشوع
441,Eloi Mendes,BR,74.73,scattered clouds,-21.61,-45.5653,Hotel Santa Rita
442,Lambarene,GA,81.86,light rain,-0.7001,10.2406,Le Refuge
444,Nouadhibou,MR,70.14,clear sky,20.931,-17.0347,El Medina
448,Salalah,OM,78.89,clear sky,17.0151,54.0924,"HAMDAN PLAZA HOTEL SALALAH, an HTG Hotel"
450,Riachao Do Jacuipe,BR,89.29,broken clouds,-11.8069,-39.3856,Riachão Palace Hotel
451,Jinja,UG,73.51,overcast clouds,0.439,33.2032,2 Friends Guesthouse and Restaurant
452,Umm Lajj,SA,77.58,broken clouds,25.0213,37.2685,Moon light Furnished Units
457,Surt,LY,63.09,broken clouds,31.2089,16.5887,الهادي ابوشعاله سرت
458,Kaseda,JP,54.97,clear sky,31.4167,130.3167,Sun Stay Kaseda
459,Sao Miguel Do Araguaia,BR,84.29,scattered clouds,-13.275,-50.1628,Hotel Executivo Palace
461,Formosa,AR,87.78,scattered clouds,-26.1775,-58.1781,Hotel Portal del Sol
462,Le Port,RE,78.8,broken clouds,-20.9373,55.2919,KORBEY D'OR OUEST
464,Axim,GH,83.57,overcast clouds,4.8699,-2.2405,Axim Beach Resort And Spa
466,Fuerte Olimpo,PY,97.99,clear sky,-21.0415,-57.8738,Hospedaje DAMI
467,Puerto Rico,AR,92.71,clear sky,-26.796,-55.024,Hotel Cabañas del Prado
468,Kirakira,SB,79.45,moderate rain,-10.4544,161.9205,SanBiz Lodge
470,Cabo San Lucas,MX,76.51,broken clouds,22.8909,-109.9124,Hotel Tesoro Los Cabos
475,Lisala,CD,80.06,broken clouds,2.15,21.5167,Flat hôtel tozelaka
480,Madras,IN,81.97,mist,13.0878,80.2785,City home
482,Olavarria,AR,80.02,clear sky,-36.8927,-60.3225,Hotel Santa Rosa
483,Duki,PK,51.57,clear sky,30.1541,68.5728,Bhari Dada Kaka Hotel
484,Buraydah,SA,63.86,broken clouds,26.326,43.975,فندق راحة السلام
485,Sao Joao Dos Patos,BR,95.9,scattered clouds,-6.495,-43.7022,Montesino Hotel & Restaurante
487,North Myrtle Beach,US,59.0,overcast clouds,33.816,-78.68,Avista Resort
490,Hubli,IN,71.64,clear sky,15.35,75.1667,Hotel Swathi
491,Valle Hermoso,MX,62.74,overcast clouds,25.6667,-97.8333,MAQUINARIA Y TRANSPORTE DE CARGA
495,Ihosy,MG,83.08,clear sky,-22.4,46.1167,Hotely Sariaka
496,Lucero,PH,79.09,scattered clouds,16.4051,119.9124,Sundowners Vacation Villas
497,Chaiya,TH,77.0,scattered clouds,9.3862,99.1986,JP Place
499,Savalou,BJ,93.18,overcast clouds,7.9281,1.9756,Hotel F&F
500,Timbiqui,CO,77.86,overcast clouds,2.7717,-77.6654,hotel diana
502,Maceio,BR,89.04,broken clouds,-9.6658,-35.7353,Poutur Pousada
503,Itarema,BR,89.01,clear sky,-2.9248,-39.9167,"Sea Lounge! Bar, Club & Restaurant"
504,Kismayo,SO,81.3,broken clouds,-0.3582,42.5454,Agan-Hotel
510,Ankazoabo,MG,87.93,broken clouds,-22.2833,44.5167,ENCEIN BUREAU CISCO
512,Broken Hill,AU,58.78,clear sky,-31.95,141.4333,Royal Exchange Hotel
513,Tezu,IN,62.71,scattered clouds,27.9167,96.1667,Circuit House
514,Houma,US,66.99,mist,29.5958,-90.7195,Courtyard by Marriott Houma
517,Matata,NZ,65.59,overcast clouds,-37.8833,176.75,Matata B&B
518,Canton,CN,68.0,overcast clouds,23.1167,113.25,Guangzhou Hotel
519,Buchanan,LR,83.12,broken clouds,5.8808,-10.0467,Kamaneahn Hotel Inc
520,Menongue,AO,67.41,moderate rain,-14.6585,17.691,Ritz Lauca
521,Pemba,MZ,82.18,overcast clouds,-12.974,40.5178,Guesthouse Samotina
522,Rusape,ZW,78.66,overcast clouds,-18.5278,32.1284,Surrey Lodge
525,Miandrivazo,MG,90.57,clear sky,-19.5167,45.4667,Hôtel Arc En Ciel Miandrivazo
526,Manadhoo,MV,83.46,broken clouds,5.7667,73.3833,Reason Inn
528,Cadereyta,MX,65.34,overcast clouds,25.5833,-99.9833,Best Western Centro Cadereyta
529,Conde,BR,89.06,few clouds,-7.2597,-34.9075,Pousada Beija Flor
531,Mahibadhoo,MV,82.92,overcast clouds,3.7833,72.9667,Omadhoo Inn
532,Salina Cruz,MX,87.12,clear sky,16.1667,-95.2,Amerik HOTEL
534,Santa Fe,AR,88.02,clear sky,-31.6333,-60.7,Conquistador Hotel
535,Puerto Ayacucho,VE,87.17,scattered clouds,5.6639,-67.6236,Posada Turistica Manapiare
536,Morondava,MG,83.16,scattered clouds,-20.2833,44.2833,La Case Bambou
537,Kalabo,ZM,76.84,overcast clouds,-14.97,22.6814,Sikakubete Guest House Kalabo Town Council
538,Geraldton,AU,70.21,clear sky,-28.7667,114.6,Broadwater Mariner Resort
540,Kulachi,PK,61.7,clear sky,31.9286,70.4592,Technical Zafran Mobile Zon kulachi
543,Waingapu,ID,79.27,overcast clouds,-9.6567,120.2641,Pondok Wisata Elim
544,Katsuura,JP,53.71,moderate rain,35.1333,140.3,Katsuura Hotel Mikazuki
545,Guiglo,CI,94.32,clear sky,6.5456,-7.4966,Hotel GBAOLY 2
546,Coquimbo,CL,62.33,broken clouds,-29.9533,-71.3436,Punto de encuentro
547,Ajaccio,FR,50.49,clear sky,42.0,8.9167,Sole E Monte
548,Yulara,AU,75.04,broken clouds,-25.2406,130.9889,Desert Gardens Hotel - Ayers Rock Resort
549,Sitio Novo Do Tocantins,BR,84.52,scattered clouds,-5.5183,-47.4611,Imperial Hotel
550,Domoni,KM,81.0,overcast clouds,-12.2569,44.5319,Al Djadid
551,Matamoros,MX,60.91,broken clouds,25.5333,-103.25,Quinta Belem
554,Padang,ID,78.85,overcast clouds,-0.9492,100.3543,Mercure Padang
556,Taunggyi,MM,57.9,scattered clouds,20.7833,97.0333,True Treasure Hotel
557,Antsohihy,MG,82.49,few clouds,-14.8796,47.9875,Hotel de Ville
558,Tala,EG,65.14,clear sky,30.6803,30.9429,وي
559,Okato,NZ,66.42,light rain,-39.2,173.8833,Goodin Country Garden
563,Russell,US,50.97,overcast clouds,32.3502,-85.1999,Macs
564,Cascais,PT,63.63,broken clouds,38.6979,-9.4215,Hotel Vila Galé Cascais
565,Katherine,AU,80.92,overcast clouds,-14.4667,132.2667,Pine Tree Motel
567,Tan An,VN,77.02,scattered clouds,10.5333,106.4167,Khách Sạn Quỳnh Anh
569,Biak,ID,76.77,overcast clouds,-0.9131,122.8766,Penginapan Kim
571,Ewa Beach,US,71.55,light rain,21.3156,-158.0072,Uncle Junior Robert
573,Los Llanos De Aridane,ES,64.15,volcanic ash,28.6585,-17.9182,Valle Aridane
574,Monrovia,LR,83.62,overcast clouds,6.3005,-10.7969,Sunset Inn
575,Adana,TR,64.92,clear sky,36.985,35.2881,Güney Adana Otel
576,Saint-Joseph,RE,77.38,light rain,-21.3667,55.6167,"""Plantation Bed and Breakfast"
579,Saiha,IN,66.85,overcast clouds,22.4833,92.9667,"Circuit House, Siaha"
580,Ahipara,NZ,64.58,overcast clouds,-35.1667,173.1667,Ahipara Holiday Park
581,Naze,JP,62.08,clear sky,28.3667,129.4833,Shishime Hotel
583,Nouakchott,MR,87.73,broken clouds,18.0858,-15.9785,HOTEL IMAN
584,Barranca,PE,70.56,broken clouds,-10.75,-77.7667,El Olivar Hospedaje
585,Barra Do Garcas,BR,92.77,clear sky,-15.89,-52.2567,Hotel Pousada Tropical
586,Ramon Castilla,PE,82.65,broken clouds,-4.2569,-69.9594,Cabañas La Manigua
587,Chlorakas,CY,67.23,overcast clouds,34.8042,32.4083,Elysium Hotel
589,Porto Nacional,BR,77.0,few clouds,-10.7081,-48.4172,Vila Real Hotel
592,Bitung,ID,81.45,overcast clouds,1.4451,125.1824,K2 Lembeh
594,Jobat,IN,71.56,clear sky,22.4167,74.5667,Singh house
595,Pinheiro Machado,BR,73.06,scattered clouds,-31.5783,-53.3811,Hotel e Restaurante Quitandinha
597,San Vicente,AR,84.27,scattered clouds,-26.6167,-54.1333,Complejo Turístico Farelluk
598,Sibolga,ID,78.08,overcast clouds,1.7427,98.7792,Hotel Syariah CN Darussalam
601,Paungde,MM,71.49,clear sky,18.4833,95.5,Shwe Eain Matt highly cool guest house
602,Victor Harbor,AU,55.72,overcast clouds,-35.5667,138.6167,McCracken Country Club
603,Ixtapa,MX,74.43,clear sky,20.7,-105.2,Hotel Plaza Providencia
605,Redcliffe,AU,73.35,broken clouds,-27.2307,153.0973,Redvue Apartments
606,Nago,JP,69.87,overcast clouds,26.5881,127.9761,Hotel Yugaf Inn Okinawa
607,Yenagoa,NG,88.83,broken clouds,4.9247,6.2642,Aridolf Resort Wellness and Spa
608,Oranjestad,AW,84.15,scattered clouds,12.524,-70.027,Divi Village Golf & Beach Resort
611,Hit,IQ,59.86,overcast clouds,33.6416,42.8251,صالون زيرو
614,Emerald,AU,69.98,overcast clouds,-23.5333,148.1667,The Irish Village
615,Ozu,JP,52.18,scattered clouds,33.5,132.55,HOTEL FOREST
618,Indore,IN,62.78,haze,22.7179,75.8333,Capital O 62303 Hotel Apna Palace
619,Male,MV,82.99,broken clouds,4.1748,73.5089,Hotel Octave Maldives
620,Riyadh,SA,66.34,clear sky,24.6877,46.7219,"InterContinental Riyadh, an IHG Hotel"
621,Ramhormoz,IR,68.22,scattered clouds,31.28,49.6035,کافی نت کاریزما
622,Takoradi,GH,83.37,broken clouds,4.8845,-1.7554,Raybow International Hotel
626,Oriximina,BR,84.06,overcast clouds,-1.7656,-55.8661,Pousada Tia Amélia
631,Maumere,ID,80.78,overcast clouds,-8.6199,122.2111,Sylvia Hotel
632,Tacoronte,ES,64.54,broken clouds,28.4769,-16.4102,Casa Laurel
633,Zhicheng,CN,50.0,overcast clouds,30.2956,111.5047,Wangjiang Building
636,Puerto Carreno,CO,91.22,scattered clouds,6.189,-67.4859,Casa Hotel Victoria
638,Aswan,EG,76.8,broken clouds,24.0934,32.907,Nuba Nile
642,Udaipur,IN,59.9,clear sky,24.5712,73.6918,"Taj Lake Palace, Udaipur"
644,Farafangana,MG,78.37,clear sky,-22.8167,47.8333,Miarina
645,Collie,AU,60.98,clear sky,-33.3667,116.15,Collie Ridge
646,Neiafu,TO,79.48,light rain,-18.65,-173.9833,Mystic Sands Beachfront Accommodation
647,Ternate,ID,81.54,overcast clouds,0.8,127.4,Sahid Bela Ternate Hotel
648,Sola,VU,80.53,overcast clouds,-13.8833,167.55,Leumerus Bungalows
649,Half Moon Bay,US,54.3,mist,37.4636,-122.4286,"The Ritz-Carlton, Half Moon Bay"
651,Abonnema,NG,87.64,broken clouds,4.7084,6.7931,Corper's Lodge Obonoma
653,Leshan,CN,50.99,overcast clouds,29.5623,103.7639,Leshan Haiyun International Youth Hostel
654,Navrongo,GH,97.83,broken clouds,10.8956,-1.0921,Azakka Hotel
655,Camacari,BR,85.77,broken clouds,-12.6975,-38.3242,Hotel Cambuci
656,Quelimane,MZ,82.04,overcast clouds,-17.8786,36.8883,Hotel Flamingo
657,Conceicao Das Alagoas,BR,88.52,clear sky,-19.9147,-48.3883,Bouganville Hotel
658,Benguela,AO,81.61,broken clouds,-12.5763,13.4055,Hotel Praia Morena
660,Prainha,BR,87.93,broken clouds,-1.8,-53.48,Casa Rocha
663,Huilong,CN,53.04,overcast clouds,31.8111,121.655,Hilton Garden Inn Qidong
665,Rayong,TH,72.77,scattered clouds,12.8333,101.4333,Suan Palm Garden View Hotel
666,Karanganyar,ID,76.59,overcast clouds,-6.7072,111.0834,Guntur Patie Home's
668,Jalu,LY,58.73,clear sky,29.0331,21.5482,صاحبة الفخامة
670,Tucurui,BR,75.52,overcast clouds,-3.7661,-49.6725,BBB Rooms Centro Tucurui PA
671,Rancho Palos Verdes,US,58.78,overcast clouds,33.7445,-118.387,Terranea Resort
672,Muisne,EC,80.71,overcast clouds,0.6,-80.0333,Quinta Samay
673,Metro,ID,74.98,overcast clouds,-5.1131,105.3067,OYO 3177 Wisma Lintang
674,Bure,ET,61.18,broken clouds,10.7,37.0667,Holiday
675,Fukue,JP,59.95,scattered clouds,32.6881,128.8419,Goto Guesthouse Utojuku & SA Car Rental
678,Zaraza,VE,92.01,few clouds,9.3503,-65.3245,Hotel Zaraza
